{
  "cities": [
    {
      "cityName": "Lisbon",
      "country": "Portugal",
      "emoji": "ðŸ‡µðŸ‡¹",
      "date": "2027-10-31T15:59:59.138Z",
      "notes": "My favorite city so far!",
      "position": {
        "lat": 38.727881642324164,
        "lng": -9.140900099907554
      },
      "id": "73930385"
    },
    {
      "cityName": "Madrid",
      "country": "Spain",
      "emoji": "ðŸ‡ªðŸ‡¸",
      "date": "2027-07-15T08:22:53.976Z",
      "notes": "",
      "position": {
        "lat": 40.46635901755316,
        "lng": -3.7133789062500004
      },
      "id": "17806751"
    },
    {
      "cityName": "Berlin",
      "country": "Germany",
      "emoji": "ðŸ‡©ðŸ‡ª",
      "date": "2027-02-12T09:24:11.863Z",
      "notes": "Amazing ðŸ˜ƒ",
      "position": {
        "lat": 52.53586782505711,
        "lng": 13.376933665713324
      },
      "id": "98443197"
    },
    {
      "id": "6a79",
      "cityName": "Tokyo",
      "country": "Japan",
      "emoji": "ðŸ‡¯ðŸ‡µ",
      "date": "2024-08-23T06:08:54.000Z",
      "notes": "it was better than expected",
      "position": {
        "lat": "35.67514743608467",
        "lng": "139.76806640625003"
      }
    },
    {
      "id": "fd32",
      "cityName": "Kuta",
      "country": "Indonesia",
      "emoji": "ðŸ‡®ðŸ‡©",
      "date": "2023-12-19T06:15:10.000Z",
      "notes": "Loved it - cheap food, nice beach",
      "position": {
        "lat": "-8.727690321614553",
        "lng": "115.17268180847168"
      }
    },
    {
      "id": "674a",
      "cityName": "Ottawa",
      "country": "Canada",
      "emoji": "ðŸ‡¨ðŸ‡¦",
      "date": "Sep 15, 2024",
      "notes": "never been there",
      "position": {
        "lat": "45.40509487118674",
        "lng": "-75.67950471574804"
      }
    },
    {
      "id": "bc75",
      "cityName": "Washington",
      "country": "United States of America (the)",
      "emoji": "ðŸ‡ºðŸ‡¸",
      "date": "Sep 15, 2024",
      "notes": "never been there",
      "position": {
        "lat": "38.89382243613501",
        "lng": "-77.04644085511593"
      }
    },
    {
      "id": "280b",
      "cityName": "Atlantic City",
      "country": "United States of America (the)",
      "emoji": "ðŸ‡ºðŸ‡¸",
      "date": "Sep 15, 2024",
      "notes": "never been here",
      "position": {
        "lat": "39.37001490959019",
        "lng": "-74.43280281435706"
      }
    },
    {
      "id": "4dcf",
      "cityName": "Hardwick",
      "country": "United States of America (the)",
      "emoji": "ðŸ‡ºðŸ‡¸",
      "date": "Sep 15, 2024",
      "notes": "???",
      "position": {
        "lat": "44.534002530889666",
        "lng": "-72.37240115276124"
      }
    }
  ]
}